{"type":"FeatureCollection","features":[{"type":"Feature","id":"AMBI_Pto_ClimaSensores.1","geometry":{"type":"Point","coordinates":[-1.65251113,42.80616886]},"geometry_name":"the_geom","properties":{"FEATURE":6002,"ID":1,"ID_N":"","TIPO":"Instalación","CATEGORIA":"Sensor medioambiental","DIRECCION":"C/ Iturrama","DESCRIP":"Temperatura, humedad relativa, radiación solar, velocidad y dirección viento","TITULAR":"Ayuntamiento de Pamplona"}},{"type":"Feature","id":"AMBI_Pto_ClimaSensores.2","geometry":{"type":"Point","coordinates":[-1.65077226,42.8259598]},"geometry_name":"the_geom","properties":{"FEATURE":6002,"ID":2,"ID_N":"","TIPO":"Instalación","CATEGORIA":"Sensor medioambiental","DIRECCION":"C/ Raimundo Lanas 8","DESCRIP":"Temperatura, humedad relativa, radiación solar, velocidad y dirección viento","TITULAR":"Ayuntamiento de Pamplona"}},{"type":"Feature","id":"AMBI_Pto_ClimaSensores.3","geometry":{"type":"Point","coordinates":[-1.64405746,42.80685251]},"geometry_name":"the_geom","properties":{"FEATURE":6002,"ID":3,"ID_N":"","TIPO":"Instalación","CATEGORIA":"Sensor medioambiental","DIRECCION":"Plza. Felisa Munarriz","DESCRIP":"Temperatura, humedad relativa, radiación solar, velocidad y dirección viento","TITULAR":"Ayuntamiento de Pamplona"}},{"type":"Feature","id":"AMBI_Pto_ClimaSensores.4","geometry":{"type":"Point","coordinates":[-1.64072145,42.81587252]},"geometry_name":"the_geom","properties":{"FEATURE":6002,"ID":4,"ID_N":"","TIPO":"Instalación","CATEGORIA":"Sensor medioambiental","DIRECCION":"Paseo Hemingway s/n","DESCRIP":"Temperatura, humedad relativa, radiación solar, velocidad y dirección viento","TITULAR":"Ayuntamiento de Pamplona"}},{"type":"Feature","id":"AMBI_Pto_ClimaSensores.5","geometry":{"type":"Point","coordinates":[-1.66387304,42.80502328]},"geometry_name":"the_geom","properties":{"FEATURE":6002,"ID":5,"ID_N":"","TIPO":"Instalación","CATEGORIA":"Sensor medioambiental","DIRECCION":"C/ Irunlarrea 208","DESCRIP":"Temperatura, humedad relativa, radiación solar, velocidad y dirección viento","TITULAR":"Ayuntamiento de Pamplona"}},{"type":"Feature","id":"AMBI_Pto_ClimaSensores.6","geometry":{"type":"Point","coordinates":[-1.6678513,42.82935664]},"geometry_name":"the_geom","properties":{"FEATURE":6002,"ID":6,"ID_N":"","TIPO":"Instalación","CATEGORIA":"Sensor medioambiental","DIRECCION":"C/ Victor Eusa 1, CP Buztinturi","DESCRIP":"Temperatura y humedad relativa","TITULAR":"Ayuntamiento de Pamplona"}},{"type":"Feature","id":"AMBI_Pto_ClimaSensores.7","geometry":{"type":"Point","coordinates":[-1.62927403,42.79232218]},"geometry_name":"the_geom","properties":{"FEATURE":6002,"ID":7,"ID_N":"","TIPO":"Instalación","CATEGORIA":"Sensor medioambiental","DIRECCION":"UPNA (Campus Arrosadia)","DESCRIP":"Temperatura y humedad relativa","TITULAR":"Ayuntamiento de Pamplona"}}],"totalFeatures":7,"numberMatched":7,"numberReturned":7,"timeStamp":"2025-05-07T07:19:42.826Z","crs":{"type":"name","properties":{"name":"urn:ogc:def:crs:EPSG::4326"}}}